{
"type": "FeatureCollection",
"crs": { "type": "name", "properties": { "name": "urn:ogc:def:crs:OGC:1.3:CRS84" } },
                                                                                
"features": [
{ "type": "Feature", "name": "WIFIFREE", "properties": { "DIRECCION": "FERNANDO TRUEBA C\/V PILAR MIRÓ" }, "geometry": { "type": "Point", "coordinates": [ -3.518486616431559, 40.350277803510266 ] } },
{ "type": "Feature", "name": "WIFIFREE", "properties": { "DIRECCION": "AV. PILAR MIRÓ C\/V CL. JOSÉ MARÍA RODERO" }, "geometry": { "type": "Point", "coordinates": [ -3.518565135298882, 40.352015074824557 ] } },
{ "type": "Feature", "name": "WIFIFREE", "properties": { "DIRECCION": "AV. PILAR MIRO C\/V CL. NURIA ESPERT" }, "geometry": { "type": "Point", "coordinates": [ -3.51802955102817, 40.35418251953238 ] } },
{ "type": "Feature", "name": "WIFIFREE", "properties": { "DIRECCION": "AV. PILAR MIRO C\/V CL. SILVIA MUNT" }, "geometry": { "type": "Point", "coordinates": [ -3.517972639187676, 40.35657606941664 ] } },
{ "type": "Feature", "name": "WIFIFREE", "properties": { "DIRECCION": "AV. PILAR MIRÓ C\/V CL. CARMEN MAURA" }, "geometry": { "type": "Point", "coordinates": [ -3.518319959056809, 40.360798414923622 ] } },
{ "type": "Feature", "name": "WIFIFREE", "properties": { "DIRECCION": "AV. AVENIDA CERRO DEL TELÉGRAFO C\/V  CL. HAYA" }, "geometry": { "type": "Point", "coordinates": [ -3.525955008953035, 40.358597026815737 ] } },
{ "type": "Feature", "name": "WIFIFREE", "properties": { "DIRECCION": "AV CERRO DEL TELÉGRAFO" }, "geometry": { "type": "Point", "coordinates": [ -3.528150855731198, 40.357538027260645 ] } },
{ "type": "Feature", "name": "WIFIFREE", "properties": { "DIRECCION": "CALLE CINCEL, SALIDA A A3" }, "geometry": { "type": "Point", "coordinates": [ -3.543105871786087, 40.347740345999291 ] } },
{ "type": "Feature", "name": "WIFIFREE", "properties": { "DIRECCION": "CL. ELÉCTRODO C\/V CL. TORNO" }, "geometry": { "type": "Point", "coordinates": [ -3.542316113015337, 40.350159202819768 ] } },
{ "type": "Feature", "name": "WIFIFREE", "properties": { "DIRECCION": "CL. FUNDICIÓN" }, "geometry": { "type": "Point", "coordinates": [ -3.540279943945343, 40.351461516683599 ] } },
{ "type": "Feature", "name": "WIFIFREE", "properties": { "DIRECCION": "AV. DE JOSÉ HIERRO C\/V CL. DE JOSÉ SARAMAGO" }, "geometry": { "type": "Point", "coordinates": [ -3.537185754811608, 40.353106147204969 ] } },
{ "type": "Feature", "name": "WIFIFREE", "properties": { "DIRECCION": "AV. RAMÓN Y CAJAL C\/V CL. JOSÉ SARAMAGO" }, "geometry": { "type": "Point", "coordinates": [ -3.529842740760041, 40.356381060474568 ] } },
{ "type": "Feature", "name": "WIFIFREE", "properties": { "DIRECCION": "AV. DE COVIBAR C\/V AV. DEL PARQUE ASTURIAS" }, "geometry": { "type": "Point", "coordinates": [ -3.54821904949203, 40.364874169057714 ] } },
{ "type": "Feature", "name": "WIFIFREE", "properties": { "DIRECCION": "CL. TORCADA C\/V CL. ACACIAS" }, "geometry": { "type": "Point", "coordinates": [ -3.533615582705802, 40.360838724041606 ] } },
{ "type": "Feature", "name": "WIFIFREE", "properties": { "DIRECCION": "AV. DE LOS ALMENDROS C\/V CL. RÍO JARAMA" }, "geometry": { "type": "Point", "coordinates": [ -3.531955939554686, 40.365700699639795 ] } },
{ "type": "Feature", "name": "WIFIFREE", "properties": { "DIRECCION": "AV. DE LOS ALMENDROS C\/V CL TORCADA" }, "geometry": { "type": "Point", "coordinates": [ -3.534596895711761, 40.364467792252249 ] } },
{ "type": "Feature", "name": "WIFIFREE", "properties": { "DIRECCION": "AV. DE LOS ALMENDROS C\/V CL. OPERA" }, "geometry": { "type": "Point", "coordinates": [ -3.53774874679423, 40.363056896757307 ] } },
{ "type": "Feature", "name": "WIFIFREE", "properties": { "DIRECCION": "AV. DE COVIBAR C\/V PS. CANTABRIA" }, "geometry": { "type": "Point", "coordinates": [ -3.547433634178304, 40.36312160624319 ] } },
{ "type": "Feature", "name": "WIFIFREE", "properties": { "DIRECCION": "CL.  FUNDICIÓN C\/V CL. CARRETILLA" }, "geometry": { "type": "Point", "coordinates": [ -3.543490550081454, 40.354597543298908 ] } },
{ "type": "Feature", "name": "WIFIFREE", "properties": { "DIRECCION": "CL. MARIE CURIE" }, "geometry": { "type": "Point", "coordinates": [ -3.525002030202186, 40.338101326276849 ] } },
{ "type": "Feature", "name": "WIFIFREE", "properties": { "DIRECCION": "CL. FUNDICIÓN" }, "geometry": { "type": "Point", "coordinates": [ -3.544037784415555, 40.351934014832899 ] } },
{ "type": "Feature", "name": "WIFIFREE", "properties": { "DIRECCION": "CL. FUNDICIÓN C\/V CL. JOAQUÍN SOROLLA" }, "geometry": { "type": "Point", "coordinates": [ -3.534325488686453, 40.346515391701452 ] } },
{ "type": "Feature", "name": "WIFIFREE", "properties": { "DIRECCION": "AV.  DE AURELIO ÁLVAREZ C\/V CL. CONCEPCIÓN ARENAL" }, "geometry": { "type": "Point", "coordinates": [ -3.526193952754828, 40.340487028353806 ] } },
{ "type": "Feature", "name": "WIFIFREE", "properties": { "DIRECCION": "AV. DE COVIBAR" }, "geometry": { "type": "Point", "coordinates": [ -3.552109686638792, 40.364385824628101 ] } },
{ "type": "Feature", "name": "WIFIFREE", "properties": { "DIRECCION": "AV. DE COVIBAR C\/V CL. LA ROSA" }, "geometry": { "type": "Point", "coordinates": [ -3.550799487647868, 40.357191772192017 ] } },
{ "type": "Feature", "name": "WIFIFREE", "properties": { "DIRECCION": "AV. DE FRANCIA C\/V CL. CAMPILLO DE SAN ISIDRO" }, "geometry": { "type": "Point", "coordinates": [ -3.510465533774841, 40.33101312450961 ] } },
{ "type": "Feature", "name": "WIFIFREE", "properties": { "DIRECCION": "CL. JUNKAL S\/N" }, "geometry": { "type": "Point", "coordinates": [ -3.542859681565747, 40.357904572171677 ] } },
{ "type": "Feature", "name": "WIFIFREE", "properties": { "DIRECCION": "PS. DE LAS PROVINCIAS" }, "geometry": { "type": "Point", "coordinates": [ -3.53776375052891, 40.37351900979138 ] } },
{ "type": "Feature", "name": "WIFIFREE", "properties": { "DIRECCION": "PS. DE LA CHOPERA" }, "geometry": { "type": "Point", "coordinates": [ -3.536952357531236, 40.366381316784526 ] } },
{ "type": "Feature", "name": "WIFIFREE", "properties": { "DIRECCION": "CL. PABLO LIMA PRO" }, "geometry": { "type": "Point", "coordinates": [ -3.550032790038456, 40.359363185503511 ] } },
{ "type": "Feature", "name": "WIFIFREE", "properties": { "DIRECCION": "CL. HIGUERA" }, "geometry": { "type": "Point", "coordinates": [ -3.523540030051538, 40.355013227254283 ] } },
{ "type": "Feature", "name": "WIFIFREE", "properties": { "DIRECCION": "CL. CIPRÉS" }, "geometry": { "type": "Point", "coordinates": [ -3.519683559947171, 40.357237641726009 ] } },
{ "type": "Feature", "name": "WIFIFREE", "properties": { "DIRECCION": "AV. DE LA TÉCNICA" }, "geometry": { "type": "Point", "coordinates": [ -3.548854200602666, 40.354026182220295 ] } },
{ "type": "Feature", "name": "WIFIFREE", "properties": { "DIRECCION": "AV. DE LA TÉCNICA C\/V CL. ROSENDO MERCADO" }, "geometry": { "type": "Point", "coordinates": [ -3.547589079118197, 40.352701427100051 ] } },
{ "type": "Feature", "name": "WIFIFREE", "properties": { "DIRECCION": "CL. JOAQUÍN SOROLLA C\/V AV. DE LA TÉCNICA" }, "geometry": { "type": "Point", "coordinates": [ -3.539638194685671, 40.344601267284446 ] } },
{ "type": "Feature", "name": "WIFIFREE", "properties": { "DIRECCION": "CL. JOAQUÍN SOROLLA C\/V CL. ELECTRODO" }, "geometry": { "type": "Point", "coordinates": [ -3.537912171667643, 40.345243871983619 ] } },
{ "type": "Feature", "name": "WIFIFREE", "properties": { "DIRECCION": "RECINTO FERIAL JUAN CARLOS I" }, "geometry": { "type": "Point", "coordinates": [ -3.512954861976941, 40.342976804101923 ] } },
{ "type": "Feature", "name": "WIFIFREE", "properties": { "DIRECCION": "CL. ROBLEDAL" }, "geometry": { "type": "Point", "coordinates": [ -3.51904890964472, 40.360178763976606 ] } },
{ "type": "Feature", "name": "WIFIFREE", "properties": { "DIRECCION": "CL. MANUELA MALASAÑA" }, "geometry": { "type": "Point", "coordinates": [ -3.543055982033119, 40.376753463527386 ] } },
{ "type": "Feature", "name": "WIFIFREE", "properties": { "DIRECCION": "CL. MARGARITA XIRGU" }, "geometry": { "type": "Point", "coordinates": [ -3.539669123009421, 40.37707734792496 ] } },
{ "type": "Feature", "name": "WIFIFREE", "properties": { "DIRECCION": "CL. JUAN GRIS C\/V AV. DE LAS NACIONES" }, "geometry": { "type": "Point", "coordinates": [ -3.520409031488942, 40.336471761287314 ] } },
{ "type": "Feature", "name": "WIFIFREE", "properties": { "DIRECCION": "AV. DE LA TÉCNICA" }, "geometry": { "type": "Point", "coordinates": [ -3.545686614121171, 40.351194868061391 ] } },
{ "type": "Feature", "name": "WIFIFREE", "properties": { "DIRECCION": "CL. JUAN DE LA CIERVA" }, "geometry": { "type": "Point", "coordinates": [ -3.528194833079074, 40.336597306129505 ] } },
{ "type": "Feature", "name": "WIFIFREE", "properties": { "DIRECCION": "CL.CESAR MANRIQUE C\/V CL. JUNKAL" }, "geometry": { "type": "Point", "coordinates": [ -3.540204491553296, 40.3567268996919 ] } },
{ "type": "Feature", "name": "WIFIFREE", "properties": { "DIRECCION": "CL. CORUÑA" }, "geometry": { "type": "Point", "coordinates": [ -3.540312407558448, 40.370588985482229 ] } },
{ "type": "Feature", "name": "WIFIFREE", "properties": { "DIRECCION": "RD. DE OVIEDO" }, "geometry": { "type": "Point", "coordinates": [ -3.5413989193214, 40.372551429750878 ] } },
{ "type": "Feature", "name": "WIFIFREE", "properties": { "DIRECCION": "AV. DE LOS ALMENDROS C\/V CL. ORFEO" }, "geometry": { "type": "Point", "coordinates": [ -3.548335561834586, 40.356098193819413 ] } },
{ "type": "Feature", "name": "WIFIFREE", "properties": { "DIRECCION": "AV. DE LEVANTE" }, "geometry": { "type": "Point", "coordinates": [ -3.514835390973112, 40.332878187068509 ] } },
{ "type": "Feature", "name": "WIFIFREE", "properties": { "DIRECCION": "CHICO MENDES (CERRO DEL TELEGRAFO)" }, "geometry": { "type": "Point", "coordinates": [ -3.525252998789337, 40.366187869805835 ] } },
{ "type": "Feature", "name": "WIFIFREE", "properties": { "DIRECCION": "AV. DE LOS ALMENDROS C\/V CL. LIBERTAD" }, "geometry": { "type": "Point", "coordinates": [ -3.540114319761551, 40.361814837547719 ] } },
{ "type": "Feature", "name": "WIFIFREE", "properties": { "DIRECCION": "CL. FUNDICIÓN C\/V CL. FRANCISCO DE QUEVEDO" }, "geometry": { "type": "Point", "coordinates": [ -3.530790125140654, 40.344909083973356 ] } },
{ "type": "Feature", "name": "WIFIFREE", "properties": { "DIRECCION": "RECINTO FERIAL" }, "geometry": { "type": "Point", "coordinates": [ -3.54526967031554, 40.355129405381604 ] } },
{ "type": "Feature", "name": "WIFIFREE", "properties": { "DIRECCION": "AV. DE COVIBAR C\/V AV. DE GABRIEL GARCÍA MÁRQUEZ" }, "geometry": { "type": "Point", "coordinates": [ -3.551808245454687, 40.359647863085826 ] } },
{ "type": "Feature", "name": "WIFIFREE", "properties": { "DIRECCION": "AV. DE LEVANTE C\/V CL. JUAN GRIS" }, "geometry": { "type": "Point", "coordinates": [ -3.517436995212436, 40.337390359003031 ] } },
{ "type": "Feature", "name": "WIFIFREE", "properties": { "DIRECCION": "CL. SUIZA" }, "geometry": { "type": "Point", "coordinates": [ -3.519439975851906, 40.329444281148881 ] } },
{ "type": "Feature", "name": "WIFIFREE", "properties": { "DIRECCION": "AV. DE FRANCIA" }, "geometry": { "type": "Point", "coordinates": [ -3.519356781175043, 40.328004342642565 ] } },
{ "type": "Feature", "name": "WIFIFREE", "properties": { "DIRECCION": "CL. MARCIAL LALANDA" }, "geometry": { "type": "Point", "coordinates": [ -3.515980870378911, 40.324794036895874 ] } },
{ "type": "Feature", "name": "WIFIFREE", "properties": { "DIRECCION": "AV. DE PABLO IGLESIAS C\/V CL. JORGE GULLÉN" }, "geometry": { "type": "Point", "coordinates": [ -3.52372358011748, 40.347331256889838 ] } },
{ "type": "Feature", "name": "WIFIFREE", "properties": { "DIRECCION": "AV. DE PABLO IGLESIAS" }, "geometry": { "type": "Point", "coordinates": [ -3.520538894811689, 40.343075154209991 ] } },
{ "type": "Feature", "name": "WIFIFREE", "properties": { "DIRECCION": "AV. DE FRANCIA C\/V CL. CISNE" }, "geometry": { "type": "Point", "coordinates": [ -3.51621013391793, 40.329070246301391 ] } },
{ "type": "Feature", "name": "WIFIFREE", "properties": { "DIRECCION": "AV. DE PABLO IGLESIAS C\/V CL. ROSA REGÁS" }, "geometry": { "type": "Point", "coordinates": [ -3.521690272002893, 40.345077957078416 ] } },
{ "type": "Feature", "name": "WIFIFREE", "properties": { "DIRECCION": "AV. DE LOS ALMENDROS C\/V CL. DE LA INTEGRACIÓN" }, "geometry": { "type": "Point", "coordinates": [ -3.543052425520463, 40.360673955417909 ] } },
{ "type": "Feature", "name": "WIFIFREE", "properties": { "DIRECCION": "AV. DE LA TÉCNICA" }, "geometry": { "type": "Point", "coordinates": [ -3.547278210655465, 40.352299523340385 ] } },
{ "type": "Feature", "name": "WIFIFREE", "properties": { "DIRECCION": "PARQUE MIRADOR" }, "geometry": { "type": "Point", "coordinates": [ -3.544257390930705, 40.362127339839894 ] } },
{ "type": "Feature", "name": "WIFIFREE", "properties": { "DIRECCION": "AV. MIGUEL HÉRNANDEZ  PLAZA VALLE DEL NALÓN" }, "geometry": { "type": "Point", "coordinates": [ -3.546583980710028, 40.361167382856472 ] } },
{ "type": "Feature", "name": "WIFIFREE", "properties": { "DIRECCION": "AV. DE PABLO IGLESIAS" }, "geometry": { "type": "Point", "coordinates": [ -3.537252638543827, 40.358180478479767 ] } },
{ "type": "Feature", "name": "WIFIFREE", "properties": { "DIRECCION": "AV. DE DOLORES IBARRURI" }, "geometry": { "type": "Point", "coordinates": [ -3.555141312314212, 40.360152916455796 ] } },
{ "type": "Feature", "name": "WIFIFREE", "properties": { "DIRECCION": "PARQUE LINEAL  PS. CANTANBRIA" }, "geometry": { "type": "Point", "coordinates": [ -3.544830667733489, 40.364190034217103 ] } },
{ "type": "Feature", "name": "WIFIFREE", "properties": { "DIRECCION": "CL. ANDREA R. GONZALEZ C\/V PASEO DE LA ESTACIÓN" }, "geometry": { "type": "Point", "coordinates": [ -3.54632631344937, 40.365577471271202 ] } },
{ "type": "Feature", "name": "WIFIFREE", "properties": { "DIRECCION": "PZ. DE BLAS OTERO" }, "geometry": { "type": "Point", "coordinates": [ -3.550398278229551, 40.366093046695738 ] } },
{ "type": "Feature", "name": "WIFIFREE", "properties": { "DIRECCION": "METRO URBANIZACIONES" }, "geometry": { "type": "Point", "coordinates": [ -3.547141826002304, 40.367130413036797 ] } },
{ "type": "Feature", "name": "WIFIFREE", "properties": { "DIRECCION": "PS. DE LAS PROVINCIAS C\/V CL. PAMPLONA" }, "geometry": { "type": "Point", "coordinates": [ -3.54844475829199, 40.368915543867878 ] } },
{ "type": "Feature", "name": "WIFIFREE", "properties": { "DIRECCION": "PISCINA COVIBAR" }, "geometry": { "type": "Point", "coordinates": [ -3.545445408295562, 40.368834177888345 ] } },
{ "type": "Feature", "name": "WIFIFREE", "properties": { "DIRECCION": "PS. DE LA CHOPERA C\/V RÍO JARAMA" }, "geometry": { "type": "Point", "coordinates": [ -3.533359644566303, 40.367799933501495 ] } },
{ "type": "Feature", "name": "WIFIFREE", "properties": { "DIRECCION": "AV. DE LOS ALMENDROS C\/V PS. DE LA CHOPERA" }, "geometry": { "type": "Point", "coordinates": [ -3.531475767424165, 40.368715869367918 ] } },
{ "type": "Feature", "name": "WIFIFREE", "properties": { "DIRECCION": "CL.PICOS DE URBIÓN C\/V AV. DE LOS ALMENDROS" }, "geometry": { "type": "Point", "coordinates": [ -3.532341813525522, 40.372864681310801 ] } },
{ "type": "Feature", "name": "WIFIFREE", "properties": { "DIRECCION": "EL CRISTO DE RIVAS" }, "geometry": { "type": "Point", "coordinates": [ -3.521848856264903, 40.378459124780044 ] } },
{ "type": "Feature", "name": "WIFIFREE", "properties": { "DIRECCION": "PS. DE LAS PROVINCIAS C\/V AV. DE LOS ALMENDROS" }, "geometry": { "type": "Point", "coordinates": [ -3.532884354204763, 40.375232579365097 ] } },
{ "type": "Feature", "name": "WIFIFREE", "properties": { "DIRECCION": "AV. DE LEVANTE C\/V AV. 1º DE MAYO" }, "geometry": { "type": "Point", "coordinates": [ -3.519160246714883, 40.340532174582542 ] } },
{ "type": "Feature", "name": "WIFIFREE", "properties": { "DIRECCION": "ACCESO RIVAS" }, "geometry": { "type": "Point", "coordinates": [ -3.549584098686165, 40.354851727852179 ] } },
{ "type": "Feature", "name": "WIFIFREE", "properties": { "DIRECCION": "AV. DE LOS ALMENDROS" }, "geometry": { "type": "Point", "coordinates": [ -3.546871107732999, 40.35741395680585 ] } },
{ "type": "Feature", "name": "WIFIFREE", "properties": { "DIRECCION": "POLIDEPORTIVO CERRO EL TELÉGRAFO" }, "geometry": { "type": "Point", "coordinates": [ -3.545434264871238, 40.356305146350827 ] } },
{ "type": "Feature", "name": "WIFIFREE", "properties": { "DIRECCION": "CL. FUNDICIÓN C\/V CL.CLAVO" }, "geometry": { "type": "Point", "coordinates": [ -3.537688258774539, 40.349497124770188 ] } },
{ "type": "Feature", "name": "WIFIFREE", "properties": { "DIRECCION": "CL. ISAAC PERAL" }, "geometry": { "type": "Point", "coordinates": [ -3.531654888542197, 40.336734238966272 ] } },
{ "type": "Feature", "name": "WIFIFREE", "properties": { "DIRECCION": "AV. DE LEVANTE C\/V CL. MIRALRÍO" }, "geometry": { "type": "Point", "coordinates": [ -3.511720087407682, 40.327489903895298 ] } },
{ "type": "Feature", "name": "WIFIFREE", "properties": { "DIRECCION": "CL. ELECTRODO" }, "geometry": { "type": "Point", "coordinates": [ -3.546767579285703, 40.354312910211782 ] } },
{ "type": "Feature", "name": "WIFIFREE", "properties": { "DIRECCION": "AV. LEVANTE C\/V CL. MIGUEL BARCELÓ" }, "geometry": { "type": "Point", "coordinates": [ -3.516000067462084, 40.334876156299018 ] } },
{ "type": "Feature", "name": "WIFIFREE", "properties": { "DIRECCION": "AV. DE JOSÉ HIERRO C\/V CL. CARLOS BOUSOÑO" }, "geometry": { "type": "Point", "coordinates": [ -3.526122115449423, 40.345868757742416 ] } },
{ "type": "Feature", "name": "WIFIFREE", "properties": { "DIRECCION": "POLIDEPORTIVO CERRO DEL TELÉGRAFO" }, "geometry": { "type": "Point", "coordinates": [ -3.545111667075546, 40.357255249082598 ] } },
{ "type": "Feature", "name": "WIFIFREE", "properties": { "DIRECCION": "CL. DE JOSÉ SARAMAGO CON AV. DE PABLO IGLESIAS" }, "geometry": { "type": "Point", "coordinates": [ -3.534257928966517, 40.354391797394229 ] } },
{ "type": "Feature", "name": "WIFIFREE", "properties": { "DIRECCION": "CL. MIRADOR C\/V AV. LEVANTE" }, "geometry": { "type": "Point", "coordinates": [ -3.510034587709086, 40.324593071644038 ] } },
{ "type": "Feature", "name": "WIFIFREE", "properties": { "DIRECCION": "DENTRO DEL POLIDEPORTIVO EL SURESTE C\/V CL. MIRADOR" }, "geometry": { "type": "Point", "coordinates": [ -3.512690595776459, 40.323766322205699 ] } },
{ "type": "Feature", "name": "WIFIFREE", "properties": { "DIRECCION": "CL. MIRALRIO C\/V CL. SAN ISIDRO" }, "geometry": { "type": "Point", "coordinates": [ -3.517722536958535, 40.325609663672985 ] } },
{ "type": "Feature", "name": "WIFIFREE", "properties": { "DIRECCION": "PZ. EUROPA C\/V CL. CISNE" }, "geometry": { "type": "Point", "coordinates": [ -3.515194417762508, 40.327857529234819 ] } },
{ "type": "Feature", "name": "WIFIFREE", "properties": { "DIRECCION": "AV. DE LEVANTE C\/V PZ. EUROPA" }, "geometry": { "type": "Point", "coordinates": [ -3.512791524161027, 40.328821168482904 ] } },
{ "type": "Feature", "name": "WIFIFREE", "properties": { "DIRECCION": "AV. DE FRANCIA C\/V AV. DE LEVANTE" }, "geometry": { "type": "Point", "coordinates": [ -3.513484456583959, 40.330162739788676 ] } },
{ "type": "Feature", "name": "WIFIFREE", "properties": { "DIRECCION": "CL. TOMAS EDISON C\/V CL. MARIE CURIE" }, "geometry": { "type": "Point", "coordinates": [ -3.523192946216411, 40.335433218869014 ] } },
{ "type": "Feature", "name": "WIFIFREE", "properties": { "DIRECCION": "CL. JUAN DE LA CIERVA C\/V CL. TOMAS EDISON" }, "geometry": { "type": "Point", "coordinates": [ -3.52698928882416, 40.334670360248033 ] } },
{ "type": "Feature", "name": "WIFIFREE", "properties": { "DIRECCION": "AV. DE AURELIO ÁLVAREZ C\/V CL. JUAN DE LA CIERVA" }, "geometry": { "type": "Point", "coordinates": [ -3.52948323680617, 40.339504980093182 ] } },
{ "type": "Feature", "name": "WIFIFREE", "properties": { "DIRECCION": "AV. AURELIO ÁLVAREZ C\/V AV. FRANCISCO QUEVEDO" }, "geometry": { "type": "Point", "coordinates": [ -3.532918877889459, 40.338851940725228 ] } },
{ "type": "Feature", "name": "WIFIFREE", "properties": { "DIRECCION": "AV. AURERLIO ÁLVAREZ C\/V  CL.GUILLERMO MARCONI" }, "geometry": { "type": "Point", "coordinates": [ -3.53430841706115, 40.338185097458556 ] } },
{ "type": "Feature", "name": "WIFIFREE", "properties": { "DIRECCION": "AV. DE FRANCISCO DE QUEVEDO C\/V AV. DE LA TÉCNICA" }, "geometry": { "type": "Point", "coordinates": [ -3.533489395944912, 40.340984688580974 ] } },
{ "type": "Feature", "name": "WIFIFREE", "properties": { "DIRECCION": "AV. FRANCISCO QUEVEDO C\/V CL. ELECTRODO" }, "geometry": { "type": "Point", "coordinates": [ -3.532432130291338, 40.342583707662826 ] } },
{ "type": "Feature", "name": "WIFIFREE", "properties": { "DIRECCION": "AV. DE JOSE HIERRO C\/V AV. DE FRANCISCO DE QUEVEDO" }, "geometry": { "type": "Point", "coordinates": [ -3.528936510319959, 40.347124079990429 ] } },
{ "type": "Feature", "name": "WIFIFREE", "properties": { "DIRECCION": "AV. PABLO IGLESIAS C\/V CL. JOVELLANOS" }, "geometry": { "type": "Point", "coordinates": [ -3.526885059710146, 40.349260165434458 ] } },
{ "type": "Feature", "name": "WIFIFREE", "properties": { "DIRECCION": "AV. RAMÓN Y CAJAL C\/V CL. JOVELLANOS" }, "geometry": { "type": "Point", "coordinates": [ -3.525305153183585, 40.352669359650179 ] } },
{ "type": "Feature", "name": "WIFIFREE", "properties": { "DIRECCION": "PARQUE BELLAVISTA" }, "geometry": { "type": "Point", "coordinates": [ -3.527391443289462, 40.35653659647128 ] } },
{ "type": "Feature", "name": "WIFIFREE", "properties": { "DIRECCION": "AV. RAMÓN Y CAJAL C\/V CL. PENSAMIENTO" }, "geometry": { "type": "Point", "coordinates": [ -3.528171821657153, 40.354421406836053 ] } },
{ "type": "Feature", "name": "WIFIFREE", "properties": { "DIRECCION": "CL. PENSAMIENTO" }, "geometry": { "type": "Point", "coordinates": [ -3.529883687563099, 40.352940722415035 ] } },
{ "type": "Feature", "name": "WIFIFREE", "properties": { "DIRECCION": "AV. PABLO IGLESIAS CON MARIO BARGAS LLOSA" }, "geometry": { "type": "Point", "coordinates": [ -3.531608053000734, 40.351424623218861 ] } },
{ "type": "Feature", "name": "WIFIFREE", "properties": { "DIRECCION": "AV. DE JOSÉ HIERRO C\/V RD. DE GLORIA FUENTES" }, "geometry": { "type": "Point", "coordinates": [ -3.533715333671695, 40.349597225325823 ] } }
]
}
